{"club": null, "fechado elevador privativo": null, "cascatinha apto poa15657": null, "vida alegre sarandi apto": null, "celebrity residencial": null, "fernando cortez": null, "puerto cadiz": null, "sala comercial": null, "av": {"latitude": -30.0324999, "longitude": -51.2303767, "endereco": "Porto Alegre"}, "sob": null, "balmar": null, "comercial proprietarios alugar": null, "salao festas entre": null, "abitazioni casa 03": null, "verdes campos": null, "horizontal florida": null, "ver": null, "altos": null, "fechado deposito jardim quadra": null, "situacao pronto": null, "solar casa grande": null, "entrada servico independente elevador": null, "place vendome condominio fechado": null, "fechado jardim zelador localizacao": null, "porto": {"latitude": -30.0184384, "longitude": -51.1923753, "endereco": "Hospital Militar de Área de Porto Alegre"}, "casa neruda": null, "fechado lareira lavabo piscina": null, "boleto": null, "san andrez ver": null, "alugueis imoveis modalidades": null, "fechado cozinha lareira lavanderia": null, "agua energia eletrica pavimentacao": null, "fechado midias fotos fale": null, "murano": null, "possui": null, "fechado": null, "fechado deposito zelador localizacao": null, "casa alta": null, "filadelfia": null, "churrasqueira condominio circuito fechado": null, "porto alegre": {"latitude": -30.0242534, "longitude": -51.1677941, "endereco": "Porto Alegre Country Club"}, "parque jardim krahe santa": null, "casa america circuito fechado": null, "fechado jardim quadra": null, "fechado jardim sala jogos": null, "elevador proximidades banco padaria": null, "localizacao cachoeirinha dormitorios": null, "florida village": null, "elevador proximidades escola": null, "america": null, "provence passo": null, "vina del mar": null, "san andrez": null, "marcolino batista da silva": null, "inteiro": null, "maria do carmo garcia": null, "jovelino de souza": null, "sao leopoldo casa": null, "posicao lateral situacao pronto": null, "luzia": null, "fiori": null, "elevador proximidades padaria shopping": null, "boa vinda": null, "elevador proximidades banco creche": null, "florenca": null, "mondiran elevador": null, "santa maria": null, "debret bicicletario": null, "elevador proximidades banco shopping": null, "bela vista": {"latitude": -30.0322174, "longitude": -51.1916823, "endereco": "Praça Bela Vista"}, "porto dascolli mont serrat": null, "antares": null, "ilha verde": null, "california village": null, "rheingantz": {"latitude": -30.0229002, "longitude": -51.1866037, "endereco": "Rua Comendador Rheingantz"}, "pablo picasso bicicletario": null, "inteiro 13": null, "juliana floresta": null, "fechado gas central": null, "veneza": null, "bela vista circuito fechado": null, "joy": null, "inteiro 14": null, "condominio": {"latitude": -30.0339687, "longitude": -51.1901397, "endereco": "Condomínio Edifício Cerro Mirador"}, "colonial": {"latitude": -30.0255761, "longitude": -51.2123549, "endereco": "Café Colonial Bela Vista"}, "cap martim elevador": null, "bosques": null, "jardim provence": null, "brinquedoteca churrasqueira condominio circuito": null, "renaissance academia": null, "edition": null, "bicicletario": null, "possui viabilidade entre": null, "europa": null, "florage moinhos": null, "victoria plaza bela vista": null, "jardim nilopolis condominio fechado": null, "gas central piscina aquecida": null, "jardim piscina coletiva entre": null, "primavera alvorada": null}